{
  "type": "FeatureCollection",
  "features": [
    {
      "type": "Feature",
      "properties": {
        "name": "The Triangle",
        "description": "In the South Park neighborhood"
      },
      "geometry": {
        "type": "Point",
        "coordinates": [
          -105.01695334911346,
          39.5725748098618
        ]
      }
    },
    {
      "type": "Feature",
      "properties": {
        "name": "Writer's Vista",
        "description": ""
      },
      "geometry": {
        "type": "Point",
        "coordinates": [
          -105.01107931137085,
          39.57229362987694
        ]
      }
    },
    {
      "type": "Feature",
      "properties": {},
      "geometry": {
        "type": "Point",
        "coordinates": [
          -105.0189220905304,
          39.57821470868737
        ]
      }
    },
    {
      "type": "Feature",
      "properties": {
        "name": "The Shortcut"
      },
      "geometry": {
        "type": "Point",
        "coordinates": [
          -105.01248478889465,
          39.57498960277655
        ]
      }
    },
    {
      "type": "Feature",
      "properties": {
        "name": "Horsee",
        "description": ""
      },
      "geometry": {
        "type": "Point",
        "coordinates": [
          -105.01500606536865,
          39.580753340351876
        ]
      }
    },
    {
      "type": "Feature",
      "properties": {
        "name": "Over the River"
      },
      "geometry": {
        "type": "Point",
        "coordinates": [
          -105.03187179565428,
          39.582109444244686
        ]
      }
    },
    {
      "type": "Feature",
      "properties": {},
      "geometry": {
        "type": "Point",
        "coordinates": [
          -105.00522136688231,
          39.56891111068631
        ]
      }
    },
    {
      "type": "Feature",
      "properties": {
        "name": "Southbridge",
        "description": ""
      },
      "geometry": {
        "type": "Point",
        "coordinates": [
          -105.00897645950317,
          39.57724719267
        ]
      }
    },
    {
      "type": "Feature",
      "properties": {},
      "geometry": {
        "type": "Point",
        "coordinates": [
          -105.02505898475647,
          39.574270135602866
        ]
      }
    },
    {
      "type": "Feature",
      "properties": {
        "name": "Steep South Park"
      },
      "geometry": {
        "type": "Point",
        "coordinates": [
          -105.02159357070923,
          39.57729680920456
        ]
      }
    },
    {
      "type": "Feature",
      "properties": {
        "name": "Fun Tunnel",
        "description": ""
      },
      "geometry": {
        "type": "Point",
        "coordinates": [
          -105.02052068710327,
          39.59849635767514
        ]
      }
    },
    {
      "type": "Feature",
      "properties": {
        "name": "Heritage Bend",
        "description": ""
      },
      "geometry": {
        "type": "Point",
        "coordinates": [
          -105.00290930271149,
          39.58829426450447
        ]
      }
    },
    {
      "type": "Feature",
      "properties": {
        "name": "Highline, Lee Gulch",
        "description": ""
      },
      "geometry": {
        "type": "Point",
        "coordinates": [
          -104.99114513397217,
          39.57941374825961
        ]
      }
    },
    {
      "type": "Feature",
      "properties": {
        "name": "Shopping",
        "description": ""
      },
      "geometry": {
        "type": "Point",
        "coordinates": [
          -104.99260425567627,
          39.5736912485478
        ]
      }
    },
    {
      "type": "Feature",
      "properties": {
        "name": "Highline at Heritage",
        "description": ""
      },
      "geometry": {
        "type": "Point",
        "coordinates": [
          -105.00355839729309,
          39.58403605841301
        ]
      }
    },
    {
      "type": "Feature",
      "properties": {
        "name": "Under Lucent",
        "description": ""
      },
      "geometry": {
        "type": "Point",
        "coordinates": [
          -105.01000642776489,
          39.56396522325065
        ]
      }
    },
    {
      "type": "Feature",
      "properties": {
        "name": "Can't Beat the View",
        "description": ""
      },
      "geometry": {
        "type": "Point",
        "coordinates": [
          -105.02521991729736,
          39.56355167153082
        ]
      }
    },
    {
      "type": "Feature",
      "properties": {
        "name": "Chatfield Parking",
        "description": ""
      },
      "geometry": {
        "type": "Point",
        "coordinates": [
          -105.04581928253174,
          39.564544191515225
        ]
      }
    },
    {
      "type": "Feature",
      "properties": {
        "name": "Traffic Circle",
        "description": ""
      },
      "geometry": {
        "type": "Point",
        "coordinates": [
          -105.0407552719116,
          39.56677730954187
        ]
      }
    },
    {
      "type": "Feature",
      "properties": {
        "name": "Land O'Lakes",
        "description": ""
      },
      "geometry": {
        "type": "Point",
        "coordinates": [
          -105.0407552719116,
          39.57552713084886
        ]
      }
    },
    {
      "type": "Feature",
      "properties": {
        "name": "Watch for Cars",
        "description": ""
      },
      "geometry": {
        "type": "Point",
        "coordinates": [
          -104.99793648719788,
          39.58322986372237
        ]
      }
    },
    {
      "type": "Feature",
      "properties": {
        "name": "Deep in the Hood",
        "description": ""
      },
      "geometry": {
        "type": "Point",
        "coordinates": [
          -105.02056360244751,
          39.58477196127588
        ]
      }
    },
    {
      "type": "Feature",
      "properties": {
        "name": "This View ... Wow!"
      },
      "geometry": {
        "type": "Point",
        "coordinates": [
          -105.01825422048567,
          39.58230789624715
        ]
      }
    },
    {
      "type": "Feature",
      "properties": {},
      "geometry": {
        "type": "Point",
        "coordinates": [
          -105.01084327697752,
          39.58435853366317
        ]
      }
    },
    {
      "type": "Feature",
      "properties": {
        "name": "Commons Park",
        "description": ""
      },
      "geometry": {
        "type": "Point",
        "coordinates": [
          -105.00561833381653,
          39.75601595623037
        ]
      }
    },
    {
      "type": "Feature",
      "properties": {
        "name": "Welcome to Highlands",
        "description": ""
      },
      "geometry": {
        "type": "Point",
        "coordinates": [
          -105.00914812088013,
          39.75830887807336
        ]
      }
    },
    {
      "type": "Feature",
      "properties": {
        "name": "Loop It",
        "description": ""
      },
      "geometry": {
        "type": "Point",
        "coordinates": [
          -105.02711355686188,
          39.76319139252622
        ]
      }
    },
    {
      "type": "Feature",
      "properties": {
        "name": "Confluence Point",
        "description": ""
      },
      "geometry": {
        "type": "Point",
        "coordinates": [
          -105.00828981399536,
          39.754415814470434
        ]
      }
    },
    {
      "type": "Feature",
      "properties": {
        "name": "Sur la Choo Choo",
        "description": ""
      },
      "geometry": {
        "type": "Point",
        "coordinates": [
          -105.00596165657043,
          39.75186293403345
        ]
      }
    },
    {
      "type": "Feature",
      "properties": {
        "name": "On Your Left",
        "description": ""
      },
      "geometry": {
        "type": "Point",
        "coordinates": [
          -104.99815106391905,
          39.73980249121548
        ]
      }
    },
    {
      "type": "Feature",
      "properties": {
        "name": "Market Street Station",
        "description": ""
      },
      "geometry": {
        "type": "Point",
        "coordinates": [
          -104.99783456325531,
          39.75027094454143
        ]
      }
    }
  ]
}